%  UTC                   latitude(deg) longitude(deg)  height(m)    dE(m)    dN(m)    dU(m)      HPL      VPL  HA  VA nsat age(s)  ratio    var    sol
2023/11/13 17:05:02.000   22.844756067  113.375573617     9.5920  -0.3393  -0.0510  -0.7179   0.0000   0.0000   0   0  25   1.00    1.1   0.0000  float
2023/11/13 17:05:03.000   22.844755590  113.375572892     9.4913  -0.4137  -0.1038  -0.8186   0.0000   0.0000   0   0  25   1.00    1.1   0.0000  float
2023/11/13 17:05:04.000   22.844755273  113.375572976     9.4331  -0.4051  -0.1389  -0.8768   0.0000   0.0000   0   0  25   1.00    1.1   0.0000  float
2023/11/13 17:05:05.000   22.844755310  113.375572798     9.4209  -0.4234  -0.1348  -0.8890   0.0000   0.0000   0   0  25   0.00    1.0   0.0000  float
2023/11/13 17:05:06.000   22.844755314  113.375572749     9.4122  -0.4284  -0.1344  -0.8977   0.0000   0.0000   0   0  25   1.00    1.1   0.0000  float
2023/11/13 17:05:07.000   22.844755299  113.375572701     9.4174  -0.4334  -0.1361  -0.8925   0.0000   0.0000   0   0  25   1.00    1.0   0.0000  float
2023/11/13 17:05:08.000   22.844755290  113.375572720     9.4087  -0.4315  -0.1370  -0.9012   0.0000   0.0000   0   0  25   2.00    1.0   0.0000  float
2023/11/13 17:05:09.000   22.844755264  113.375572737     9.4087  -0.4296  -0.1399  -0.9012   0.0000   0.0000   0   0  25   3.00    1.1   0.0000  float
2023/11/13 17:05:10.000   22.844755215  113.375572742     9.3759  -0.4292  -0.1453  -0.9340   0.0000   0.0000   0   0  25   4.00    1.1   0.0000  float
2023/11/13 17:05:11.000   22.844755131  113.375572656     9.3467  -0.4380  -0.1546  -0.9632   0.0000   0.0000   0   0  25   5.00    1.1   0.0000  float
2023/11/13 17:05:12.000   22.844755031  113.375572623     9.3265  -0.4414  -0.1658  -0.9834   0.0000   0.0000   0   0  25   6.00    1.1   0.0000  float
2023/11/13 17:05:13.000   22.844754959  113.375572607     9.3020  -0.4430  -0.1737  -1.0079   0.0000   0.0000   0   0  25   7.00    1.1   0.0000  float
2023/11/13 17:05:14.000   22.844754900  113.375572612     9.2930  -0.4425  -0.1802  -1.0169   0.0000   0.0000   0   0  25   8.00    1.1   0.0000  float
2023/11/13 17:05:15.000   22.844754882  113.375572647     9.3021  -0.4389  -0.1822  -1.0078   0.0000   0.0000   0   0  25   9.00    1.1   0.0000  float
2023/11/13 17:05:16.000   22.844754853  113.375572729     9.3154  -0.4305  -0.1854  -0.9945   0.0000   0.0000   0   0  25  10.00    1.1   0.0000  float
2023/11/13 17:05:17.000   22.844754815  113.375572760     9.3099  -0.4273  -0.1896  -1.0000   0.0000   0.0000   0   0  25  11.00    1.1   0.0000  float
2023/11/13 17:05:18.000   22.844754803  113.375572802     9.3130  -0.4230  -0.1910  -0.9969   0.0000   0.0000   0   0  25  12.00    1.1   0.0000  float
2023/11/13 17:05:19.000   22.844754735  113.375572802     9.3010  -0.4230  -0.1985  -1.0089   0.0000   0.0000   0   0  25  13.00    1.1   0.0000  float
2023/11/13 17:05:20.000   22.844754660  113.375572786     9.2875  -0.4246  -0.2068  -1.0224   0.0000   0.0000   0   0  25  14.00    1.1   0.0000  float
2023/11/13 17:05:21.000   22.844754584  113.375572767     9.2774  -0.4266  -0.2152  -1.0325   0.0000   0.0000   0   0  25  15.00    1.1   0.0000  float
2023/11/13 17:05:22.000   22.844754630  113.375571937     9.1090  -0.5118  -0.2101  -1.2009   0.0000   0.0000   0   0  28   1.00    1.0   0.0000  float
2023/11/13 17:05:23.000   22.844754670  113.375571899     9.0842  -0.5156  -0.2057  -1.2257   0.0000   0.0000   0   0  28   0.00    1.1   0.0000  float
2023/11/13 17:05:24.000   22.844754690  113.375571942     9.0773  -0.5113  -0.2035  -1.2326   0.0000   0.0000   0   0  28   1.00    1.1   0.0000  float
2023/11/13 17:05:25.000   22.844754729  113.375571913     9.0623  -0.5143  -0.1992  -1.2476   0.0000   0.0000   0   0  28   1.00    1.0   0.0000  float
2023/11/13 17:05:26.000   22.844754756  113.375571912     9.0548  -0.5144  -0.1962  -1.2551   0.0000   0.0000   0   0  28   1.00    1.0   0.0000  float
2023/11/13 17:05:27.000   22.844754821  113.375571926     9.0538  -0.5129  -0.1889  -1.2561   0.0000   0.0000   0   0  28   1.00    1.1   0.0000  float
2023/11/13 17:05:28.000   22.844754842  113.375571954     9.0514  -0.5100  -0.1867  -1.2585   0.0000   0.0000   0   0  28   2.00    1.1   0.0000  float
2023/11/13 17:05:29.000   22.844754852  113.375571936     9.0441  -0.5119  -0.1855  -1.2658   0.0000   0.0000   0   0  28   3.00    1.1   0.0000  float
2023/11/13 17:05:30.000   22.844754887  113.375571992     9.0422  -0.5061  -0.1817  -1.2677   0.0000   0.0000   0   0  28   4.00    1.1   0.0000  float
2023/11/13 17:05:31.000   22.844754910  113.375572012     9.0316  -0.5041  -0.1791  -1.2783   0.0000   0.0000   0   0  28   5.00    1.1   0.0000  float
2023/11/13 17:05:32.000   22.844754942  113.375572044     9.0309  -0.5008  -0.1756  -1.2790   0.0000   0.0000   0   0  28   6.00    1.1   0.0000  float
2023/11/13 17:05:33.000   22.844754955  113.375572114     9.0322  -0.4936  -0.1741  -1.2777   0.0000   0.0000   0   0  28   7.00    1.1   0.0000  float
2023/11/13 17:05:34.000   22.844754974  113.375572188     9.0245  -0.4860  -0.1721  -1.2854   0.0000   0.0000   0   0  28   8.00    1.1   0.0000  float
2023/11/13 17:05:35.000   22.844755000  113.375572194     9.0182  -0.4854  -0.1691  -1.2917   0.0000   0.0000   0   0  28   9.00    1.0   0.0000  float
2023/11/13 17:05:36.000   22.844755037  113.375572194     9.0203  -0.4854  -0.1651  -1.2896   0.0000   0.0000   0   0  28  10.00    1.0   0.0000  float
2023/11/13 17:05:37.000   22.844755046  113.375572193     9.0215  -0.4855  -0.1641  -1.2884   0.0000   0.0000   0   0  28  11.00    1.0   0.0000  float
2023/11/13 17:05:38.000   22.844755041  113.375572189     9.0273  -0.4859  -0.1646  -1.2826   0.0000   0.0000   0   0  28  12.00    1.0   0.0000  float
2023/11/13 17:05:39.000   22.844755022  113.375572154     9.0293  -0.4895  -0.1668  -1.2806   0.0000   0.0000   0   0  28  13.00    1.0   0.0000  float
2023/11/13 17:05:40.000   22.844755033  113.375572168     9.0330  -0.4881  -0.1655  -1.2769   0.0000   0.0000   0   0  28  14.00    1.0   0.0000  float
2023/11/13 17:05:41.000   22.844754944  113.375572210     9.0246  -0.4838  -0.1754  -1.2853   0.0000   0.0000   0   0  28   0.00    1.0   0.0000  float
2023/11/13 17:05:42.000   22.844754891  113.375572202     9.0269  -0.4846  -0.1812  -1.2830   0.0000   0.0000   0   0  28   1.00    1.0   0.0000  float
2023/11/13 17:05:43.000   22.844754527  113.375571675     8.9804  -0.5387  -0.2215  -1.3295   0.0000   0.0000   0   0  25   1.00    1.0   0.0000  float
2023/11/13 17:05:44.000   22.844754520  113.375571779     9.0411  -0.5280  -0.2223  -1.2688   0.0000   0.0000   0   0  25   1.00    1.1   0.0000  float
2023/11/13 17:05:45.000   22.844754511  113.375571881     9.0926  -0.5175  -0.2234  -1.2173   0.0000   0.0000   0   0  25   1.00    1.1   0.0000  float
2023/11/13 17:05:46.000   22.844754529  113.375571991     9.1384  -0.5063  -0.2213  -1.1715   0.0000   0.0000   0   0  25   1.00    1.2   0.0000  float
2023/11/13 17:05:47.000   22.844754556  113.375572119     9.1930  -0.4931  -0.2183  -1.1169   0.0000   0.0000   0   0  25   1.00    1.2   0.0000  float
2023/11/13 17:05:48.000   22.844754566  113.375572241     9.2372  -0.4806  -0.2172  -1.0727   0.0000   0.0000   0   0  25   2.00    1.2   0.0000  float
2023/11/13 17:05:49.000   22.844754574  113.375572341     9.2786  -0.4703  -0.2164  -1.0313   0.0000   0.0000   0   0  25   3.00    1.2   0.0000  float
2023/11/13 17:05:50.000   22.844754567  113.375572388     9.3070  -0.4655  -0.2171  -1.0029   0.0000   0.0000   0   0  25   4.00    1.2   0.0000  float
2023/11/13 17:05:51.000   22.844754560  113.375572443     9.3315  -0.4598  -0.2179  -0.9784   0.0000   0.0000   0   0  25   5.00    1.2   0.0000  float
2023/11/13 17:05:52.000   22.844754560  113.375572459     9.3491  -0.4582  -0.2179  -0.9608   0.0000   0.0000   0   0  25   6.00    1.2   0.0000  float
2023/11/13 17:05:53.000   22.844754569  113.375572504     9.3676  -0.4535  -0.2169  -0.9423   0.0000   0.0000   0   0  25   7.00    1.2   0.0000  float
2023/11/13 17:05:54.000   22.844754582  113.375572578     9.3886  -0.4460  -0.2155  -0.9213   0.0000   0.0000   0   0  25   8.00    1.2   0.0000  float
2023/11/13 17:05:55.000   22.844754586  113.375572591     9.3984  -0.4447  -0.2150  -0.9115   0.0000   0.0000   0   0  25   9.00    1.2   0.0000  float
2023/11/13 17:05:56.000   22.844754596  113.375572608     9.4114  -0.4429  -0.2139  -0.8985   0.0000   0.0000   0   0  25  10.00    1.1   0.0000  float
2023/11/13 17:05:57.000   22.844754588  113.375572604     9.4149  -0.4434  -0.2148  -0.8950   0.0000   0.0000   0   0  25  11.00    1.1   0.0000  float
2023/11/13 17:05:58.000   22.844754595  113.375572626     9.4186  -0.4411  -0.2140  -0.8913   0.0000   0.0000   0   0  25  12.00    1.1   0.0000  float
2023/11/13 17:05:59.000   22.844754603  113.375572619     9.4265  -0.4418  -0.2131  -0.8834   0.0000   0.0000   0   0  25  13.00    1.1   0.0000  float
2023/11/13 17:06:00.000   22.844754603  113.375572651     9.4355  -0.4385  -0.2131  -0.8744   0.0000   0.0000   0   0  25  14.00    1.1   0.0000  float
2023/11/13 17:06:01.000   22.844754615  113.375572669     9.4379  -0.4366  -0.2118  -0.8720   0.0000   0.0000   0   0  25  15.00    1.1   0.0000  float
2023/11/13 17:06:02.000   22.844754612  113.375572719     9.4402  -0.4315  -0.2121  -0.8697   0.0000   0.0000   0   0  25  16.00    1.1   0.0000  float
2023/11/13 17:06:03.000   22.844754644  113.375572751     9.4444  -0.4283  -0.2086  -0.8655   0.0000   0.0000   0   0  25  17.00    1.1   0.0000  float
2023/11/13 17:06:04.000   22.844754649  113.375572790     9.4471  -0.4242  -0.2080  -0.8628   0.0000   0.0000   0   0  25  18.00    1.0   0.0000  float
2023/11/13 17:06:05.000   22.844754662  113.375572788     9.4519  -0.4244  -0.2066  -0.8580   0.0000   0.0000   0   0  25  19.00    1.0   0.0000  float
2023/11/13 17:06:06.000   22.844754679  113.375572355     9.3948  -0.4689  -0.2047  -0.9151   0.0000   0.0000   0   0  25   4.00    1.0   0.0000  float
2023/11/13 17:06:07.000   22.844754815  113.375572346     9.4099  -0.4698  -0.1896  -0.9000   0.0000   0.0000   0   0  25   1.00    1.0   0.0000  float
2023/11/13 17:06:08.000   22.844754935  113.375572468     9.4584  -0.4573  -0.1763  -0.8515   0.0000   0.0000   0   0  25   2.00    1.1   0.0000  float
2023/11/13 17:06:09.000   22.844755025  113.375572575     9.4968  -0.4463  -0.1664  -0.8131   0.0000   0.0000   0   0  25   3.00    1.1   0.0000  float
2023/11/13 17:06:10.000   22.844755076  113.375572678     9.5282  -0.4357  -0.1608  -0.7817   0.0000   0.0000   0   0  25   4.00    1.1   0.0000  float
2023/11/13 17:06:11.000   22.844755115  113.375572765     9.5538  -0.4267  -0.1564  -0.7561   0.0000   0.0000   0   0  25   5.00    1.1   0.0000  float
2023/11/13 17:06:12.000   22.844755146  113.375572861     9.5735  -0.4169  -0.1529  -0.7364   0.0000   0.0000   0   0  25   6.00    1.1   0.0000  float
2023/11/13 17:06:13.000   22.844755166  113.375572913     9.5856  -0.4116  -0.1508  -0.7243   0.0000   0.0000   0   0  25   7.00    1.1   0.0000  float
2023/11/13 17:06:14.000   22.844755200  113.375573040     9.5954  -0.3985  -0.1470  -0.7145   0.0000   0.0000   0   0  25   8.00    1.1   0.0000  float
2023/11/13 17:06:15.000   22.844755215  113.375573114     9.6019  -0.3910  -0.1454  -0.7080   0.0000   0.0000   0   0  25   9.00    1.1   0.0000  float
2023/11/13 17:06:16.000   22.844755219  113.375573188     9.6088  -0.3834  -0.1449  -0.7011   0.0000   0.0000   0   0  25  10.00    1.1   0.0000  float
2023/11/13 17:06:17.000   22.844755244  113.375573253     9.6211  -0.3767  -0.1422  -0.6888   0.0000   0.0000   0   0  25  11.00    1.1   0.0000  float
2023/11/13 17:06:18.000   22.844755262  113.375573318     9.6360  -0.3700  -0.1401  -0.6739   0.0000   0.0000   0   0  25  12.00    1.1   0.0000  float
2023/11/13 17:06:19.000   22.844755291  113.375573340     9.6438  -0.3678  -0.1369  -0.6661   0.0000   0.0000   0   0  25  13.00    1.1   0.0000  float
2023/11/13 17:06:20.000   22.844755292  113.375573387     9.6469  -0.3629  -0.1368  -0.6630   0.0000   0.0000   0   0  25  14.00    1.1   0.0000  float
2023/11/13 17:06:21.000   22.844755317  113.375573188     9.6843  -0.3833  -0.1341  -0.6256   0.0000   0.0000   0   0  21   0.00    1.0   0.0000  float
2023/11/13 17:06:22.000   22.844755386  113.375573293     9.7302  -0.3726  -0.1264  -0.5797   0.0000   0.0000   0   0  21   1.00    1.0   0.0000  float
2023/11/13 17:06:23.000   22.844755481  113.375573399     9.7717  -0.3618  -0.1159  -0.5382   0.0000   0.0000   0   0  21   1.00    1.0   0.0000  float
2023/11/13 17:06:24.000   22.844755542  113.375573448     9.8071  -0.3567  -0.1091  -0.5028   0.0000   0.0000   0   0  21   1.00    1.0   0.0000  float
2023/11/13 17:06:25.000   22.844755636  113.375573539     9.8513  -0.3473  -0.0987  -0.4586   0.0000   0.0000   0   0  21   1.00    1.0   0.0000  float
2023/11/13 17:06:26.000   22.844755697  113.375573572     9.8782  -0.3440  -0.0919  -0.4317   0.0000   0.0000   0   0  21   1.00    1.0   0.0000  float
2023/11/13 17:06:27.000   22.844755798  113.375573640     9.9151  -0.3370  -0.0808  -0.3948   0.0000   0.0000   0   0  21   1.00    1.0   0.0000  float
2023/11/13 17:06:28.000   22.844755879  113.375573713     9.9419  -0.3295  -0.0718  -0.3680   0.0000   0.0000   0   0  21   1.00    1.0   0.0000  float
2023/11/13 17:06:29.000   22.844755926  113.375573761     9.9636  -0.3246  -0.0666  -0.3463   0.0000   0.0000   0   0  21   2.00    1.0   0.0000  float
2023/11/13 17:06:30.000   22.844755953  113.375573820     9.9784  -0.3185  -0.0636  -0.3315   0.0000   0.0000   0   0  21   3.00    1.0   0.0000  float
2023/11/13 17:06:31.000   22.844756010  113.375573876    10.0037  -0.3128  -0.0573  -0.3062   0.0000   0.0000   0   0  21   4.00    1.0   0.0000  float
2023/11/13 17:06:32.000   22.844756059  113.375573927    10.0205  -0.3075  -0.0519  -0.2894   0.0000   0.0000   0   0  21   5.00    1.1   0.0000  float
2023/11/13 17:06:33.000   22.844756093  113.375573960    10.0330  -0.3041  -0.0481  -0.2769   0.0000   0.0000   0   0  21   6.00    1.1   0.0000  float
2023/11/13 17:06:34.000   22.844756122  113.375574018    10.0430  -0.2982  -0.0449  -0.2669   0.0000   0.0000   0   0  21   7.00    1.1   0.0000  float
2023/11/13 17:06:35.000   22.844756128  113.375574062    10.0428  -0.2937  -0.0443  -0.2671   0.0000   0.0000   0   0  21   8.00    1.1   0.0000  float
2023/11/13 17:06:36.000   22.844756108  113.375574053    10.0338  -0.2946  -0.0464  -0.2761   0.0000   0.0000   0   0  21   9.00    1.1   0.0000  float
2023/11/13 17:06:37.000   22.844756124  113.375574082    10.0399  -0.2916  -0.0447  -0.2700   0.0000   0.0000   0   0  21  10.00    1.1   0.0000  float
2023/11/13 17:06:38.000   22.844756135  113.375574094    10.0369  -0.2903  -0.0435  -0.2730   0.0000   0.0000   0   0  21  11.00    1.1   0.0000  float
2023/11/13 17:06:39.000   22.844756152  113.375574137    10.0426  -0.2860  -0.0416  -0.2673   0.0000   0.0000   0   0  21  12.00    1.1   0.0000  float
2023/11/13 17:06:40.000   22.844756181  113.375574175    10.0541  -0.2821  -0.0383  -0.2558   0.0000   0.0000   0   0  21  13.00    1.1   0.0000  float
2023/11/13 17:06:41.000   22.844756188  113.375574194    10.0516  -0.2801  -0.0376  -0.2583   0.0000   0.0000   0   0  21  14.00    1.1   0.0000  float
2023/11/13 17:06:42.000   22.844756233  113.375573963     9.9528  -0.3038  -0.0327  -0.3571   0.0000   0.0000   0   0  23   0.00    1.0   0.0000  float
2023/11/13 17:06:43.000   22.844756255  113.375573950     9.9502  -0.3052  -0.0302  -0.3597   0.0000   0.0000   0   0  23   1.00    1.0   0.0000  float
2023/11/13 17:06:44.000   22.844756257  113.375573992     9.9533  -0.3009  -0.0300  -0.3566   0.0000   0.0000   0   0  23   1.00    1.1   0.0000  float
2023/11/13 17:06:45.000   22.844756271  113.375573983     9.9435  -0.3018  -0.0284  -0.3664   0.0000   0.0000   0   0  23   0.00    1.1   0.0000  float
2023/11/13 17:06:46.000   22.844756279  113.375573996     9.9436  -0.3004  -0.0275  -0.3663   0.0000   0.0000   0   0  23   1.00    1.1   0.0000  float
2023/11/13 17:06:47.000   22.844756287  113.375574024     9.9409  -0.2975  -0.0266  -0.3690   0.0000   0.0000   0   0  23   0.00    1.1   0.0000  float
2023/11/13 17:06:48.000   22.844756276  113.375574033     9.9385  -0.2966  -0.0279  -0.3714   0.0000   0.0000   0   0  23   1.00    1.1   0.0000  float
2023/11/13 17:06:49.000   22.844756260  113.375574069     9.9351  -0.2930  -0.0296  -0.3748   0.0000   0.0000   0   0  23   2.00    1.1   0.0000  float
2023/11/13 17:06:50.000   22.844756263  113.375574061     9.9264  -0.2938  -0.0293  -0.3835   0.0000   0.0000   0   0  23   3.00    1.1   0.0000  float
2023/11/13 17:06:51.000   22.844756253  113.375574070     9.9176  -0.2928  -0.0304  -0.3923   0.0000   0.0000   0   0  23   4.00    1.2   0.0000  float
2023/11/13 17:06:52.000   22.844756261  113.375574064     9.9074  -0.2935  -0.0295  -0.4025   0.0000   0.0000   0   0  23   5.00    1.2   0.0000  float
2023/11/13 17:06:53.000   22.844756270  113.375574084     9.9025  -0.2914  -0.0285  -0.4074   0.0000   0.0000   0   0  23   6.00    1.2   0.0000  float
2023/11/13 17:06:54.000   22.844756287  113.375574105     9.9007  -0.2893  -0.0266  -0.4092   0.0000   0.0000   0   0  23   7.00    1.2   0.0000  float
2023/11/13 17:06:55.000   22.844756295  113.375574136     9.8983  -0.2861  -0.0258  -0.4116   0.0000   0.0000   0   0  23   8.00    1.2   0.0000  float
2023/11/13 17:06:56.000   22.844756286  113.375574154     9.8904  -0.2842  -0.0268  -0.4195   0.0000   0.0000   0   0  23   9.00    1.2   0.0000  float
2023/11/13 17:06:57.000   22.844756285  113.375574151     9.8892  -0.2846  -0.0269  -0.4207   0.0000   0.0000   0   0  23  10.00    1.2   0.0000  float
2023/11/13 17:06:58.000   22.844756263  113.375574136     9.8771  -0.2861  -0.0293  -0.4328   0.0000   0.0000   0   0  23  11.00    1.2   0.0000  float
2023/11/13 17:06:59.000   22.844756245  113.375574129     9.8758  -0.2868  -0.0313  -0.4341   0.0000   0.0000   0   0  23  12.00    1.2   0.0000  float
2023/11/13 17:07:00.000   22.844756242  113.375574107     9.8676  -0.2891  -0.0316  -0.4423   0.0000   0.0000   0   0  23  13.00    1.2   0.0000  float
2023/11/13 17:07:01.000   22.844756222  113.375574120     9.8632  -0.2877  -0.0338  -0.4467   0.0000   0.0000   0   0  23  14.00    1.2   0.0000  float
2023/11/13 17:07:02.000   22.844756212  113.375574142     9.8655  -0.2855  -0.0350  -0.4444   0.0000   0.0000   0   0  23  15.00    1.2   0.0000  float
2023/11/13 17:07:03.000   22.844756161  113.375574098     9.8378  -0.2899  -0.0405  -0.4721   0.0000   0.0000   0   0  23   1.00    1.2   0.0000  float
2023/11/13 17:07:04.000   22.844756088  113.375574076     9.8174  -0.2922  -0.0487  -0.4925   0.0000   0.0000   0   0  23   1.00    1.3   0.0000  float
2023/11/13 17:07:05.000   22.844756053  113.375574054     9.8043  -0.2945  -0.0525  -0.5056   0.0000   0.0000   0   0  23   0.00    1.3   0.0000  float
2023/11/13 17:07:06.000   22.844756027  113.375574030     9.7980  -0.2969  -0.0554  -0.5119   0.0000   0.0000   0   0  23   0.00    1.4   0.0000  float
2023/11/13 17:07:07.000   22.844755990  113.375574010     9.7986  -0.2990  -0.0595  -0.5113   0.0000   0.0000   0   0  23   1.00    1.4   0.0000  float
2023/11/13 17:07:08.000   22.844755976  113.375573999     9.7924  -0.3002  -0.0610  -0.5175   0.0000   0.0000   0   0  23   1.00    1.4   0.0000  float
2023/11/13 17:07:09.000   22.844755951  113.375574016     9.7925  -0.2984  -0.0638  -0.5174   0.0000   0.0000   0   0  23   2.00    1.4   0.0000  float
2023/11/13 17:07:10.000   22.844755928  113.375574009     9.7887  -0.2991  -0.0664  -0.5212   0.0000   0.0000   0   0  23   3.00    1.4   0.0000  float
2023/11/13 17:07:11.000   22.844755890  113.375574005     9.7855  -0.2996  -0.0706  -0.5244   0.0000   0.0000   0   0  23   4.00    1.4   0.0000  float
2023/11/13 17:07:12.000   22.844755854  113.375573958     9.7781  -0.3043  -0.0746  -0.5318   0.0000   0.0000   0   0  23   5.00    1.4   0.0000  float
2023/11/13 17:07:13.000   22.844755849  113.375573932     9.7796  -0.3071  -0.0751  -0.5303   0.0000   0.0000   0   0  23   6.00    1.4   0.0000  float
2023/11/13 17:07:14.000   22.844755815  113.375573905     9.7708  -0.3098  -0.0788  -0.5391   0.0000   0.0000   0   0  23   7.00    1.3   0.0000  float
2023/11/13 17:07:15.000   22.844755788  113.375573898     9.7623  -0.3105  -0.0819  -0.5476   0.0000   0.0000   0   0  23   8.00    1.3   0.0000  float
2023/11/13 17:07:16.000   22.844755782  113.375573908     9.7636  -0.3095  -0.0826  -0.5463   0.0000   0.0000   0   0  23   9.00    1.3   0.0000  float
2023/11/13 17:07:17.000   22.844755756  113.375573919     9.7620  -0.3084  -0.0854  -0.5479   0.0000   0.0000   0   0  23  10.00    1.3   0.0000  float
2023/11/13 17:07:18.000   22.844755745  113.375573924     9.7691  -0.3079  -0.0867  -0.5408   0.0000   0.0000   0   0  23  11.00    1.3   0.0000  float
2023/11/13 17:07:19.000   22.844755728  113.375573935     9.7633  -0.3067  -0.0885  -0.5466   0.0000   0.0000   0   0  23  12.00    1.2   0.0000  float
2023/11/13 17:07:20.000   22.844755722  113.375573951     9.7604  -0.3051  -0.0892  -0.5495   0.0000   0.0000   0   0  23  13.00    1.2   0.0000  float
2023/11/13 17:07:21.000   22.844755713  113.375573943     9.7519  -0.3059  -0.0902  -0.5580   0.0000   0.0000   0   0  23  14.00    1.2   0.0000  float
2023/11/13 17:07:22.000   22.844756111  113.375574260     9.7728  -0.2733  -0.0462  -0.5371   0.0000   0.0000   0   0  23   1.00    1.2   0.0000  float
2023/11/13 17:07:23.000   22.844756121  113.375574322     9.7925  -0.2670  -0.0451  -0.5174   0.0000   0.0000   0   0  23   1.00    1.3   0.0000  float
2023/11/13 17:07:24.000   22.844756136  113.375574334     9.8104  -0.2657  -0.0433  -0.4995   0.0000   0.0000   0   0  23   1.00    1.4   0.0000  float
2023/11/13 17:07:25.000   22.844756139  113.375574358     9.8219  -0.2633  -0.0431  -0.4880   0.0000   0.0000   0   0  23   1.00    1.5   0.0000  float
2023/11/13 17:07:26.000   22.844756135  113.375574369     9.8287  -0.2621  -0.0435  -0.4812   0.0000   0.0000   0   0  23   1.00    1.5   0.0000  float
2023/11/13 17:07:27.000   22.844756118  113.375574376     9.8364  -0.2614  -0.0454  -0.4735   0.0000   0.0000   0   0  23   1.00    1.5   0.0000  float
2023/11/13 17:07:28.000   22.844756105  113.375574401     9.8415  -0.2589  -0.0467  -0.4684   0.0000   0.0000   0   0  23   0.00    1.6   0.0000  float
2023/11/13 17:07:29.000   22.844756113  113.375574454     9.8542  -0.2534  -0.0459  -0.4557   0.0000   0.0000   0   0  23   1.00    1.6   0.0000  float
2023/11/13 17:07:30.000   22.844756115  113.375574479     9.8650  -0.2508  -0.0457  -0.4449   0.0000   0.0000   0   0  23   2.00    1.6   0.0000  float
2023/11/13 17:07:31.000   22.844756122  113.375574553     9.8840  -0.2433  -0.0449  -0.4259   0.0000   0.0000   0   0  23   3.00    1.5   0.0000  float
2023/11/13 17:07:32.000   22.844756145  113.375574619     9.9000  -0.2365  -0.0424  -0.4099   0.0000   0.0000   0   0  23   4.00    1.5   0.0000  float
2023/11/13 17:07:33.000   22.844756136  113.375574670     9.9107  -0.2313  -0.0433  -0.3992   0.0000   0.0000   0   0  23   5.00    1.5   0.0000  float
2023/11/13 17:07:34.000   22.844756149  113.375574705     9.9161  -0.2277  -0.0420  -0.3938   0.0000   0.0000   0   0  23   6.00    1.5   0.0000  float
2023/11/13 17:07:35.000   22.844756136  113.375574754     9.9212  -0.2226  -0.0433  -0.3887   0.0000   0.0000   0   0  23   7.00    1.5   0.0000  float
2023/11/13 17:07:36.000   22.844756153  113.375574806     9.9274  -0.2173  -0.0415  -0.3825   0.0000   0.0000   0   0  23   8.00    1.5   0.0000  float
2023/11/13 17:07:37.000   22.844756152  113.375574813     9.9282  -0.2166  -0.0416  -0.3817   0.0000   0.0000   0   0  23   9.00    1.5   0.0000  float
2023/11/13 17:07:38.000   22.844756155  113.375574858     9.9304  -0.2119  -0.0412  -0.3795   0.0000   0.0000   0   0  23  10.00    1.5   0.0000  float
2023/11/13 17:07:39.000   22.844756173  113.375574926     9.9418  -0.2050  -0.0392  -0.3681   0.0000   0.0000   0   0  23  11.00    1.5   0.0000  float
2023/11/13 17:07:40.000   22.844756165  113.375574992     9.9483  -0.1982  -0.0401  -0.3616   0.0000   0.0000   0   0  23  12.00    1.5   0.0000  float
2023/11/13 17:07:41.000   22.844756157  113.375575042     9.9542  -0.1930  -0.0410  -0.3557   0.0000   0.0000   0   0  23  13.00    1.5   0.0000  float
2023/11/13 17:07:42.000   22.844756037  113.375574719     9.8951  -0.2262  -0.0543  -0.4148   0.0000   0.0000   0   0  23   1.00    1.4   0.0000  float
2023/11/13 17:07:43.000   22.844756239  113.375575524    10.1177  -0.1436  -0.0319  -0.1922   0.0000   0.0000   0   0  22   0.00    1.1   0.0000  float
2023/11/13 17:07:44.000   22.844756282  113.375575505    10.1159  -0.1456  -0.0272  -0.1940   0.0000   0.0000   0   0  22   1.00    1.1   0.0000  float
2023/11/13 17:07:45.000   22.844756304  113.375575496    10.1079  -0.1465  -0.0248  -0.2020   0.0000   0.0000   0   0  22   1.00    1.1   0.0000  float
2023/11/13 17:07:46.000   22.844756343  113.375575472    10.1082  -0.1490  -0.0204  -0.2017   0.0000   0.0000   0   0  22   1.00    1.1   0.0000  float
2023/11/13 17:07:47.000   22.844756357  113.375575455    10.1004  -0.1507  -0.0189  -0.2095   0.0000   0.0000   0   0  22   1.00    1.2   0.0000  float
2023/11/13 17:07:48.000   22.844756387  113.375575442    10.0976  -0.1521  -0.0156  -0.2123   0.0000   0.0000   0   0  22   1.00    1.1   0.0000  float
2023/11/13 17:07:49.000   22.844756391  113.375575380    10.0850  -0.1584  -0.0152  -0.2249   0.0000   0.0000   0   0  22   1.00    1.1   0.0000  float
2023/11/13 17:07:50.000   22.844756411  113.375575355    10.0779  -0.1610  -0.0129  -0.2320   0.0000   0.0000   0   0  22   2.00    1.1   0.0000  float
2023/11/13 17:07:51.000   22.844756414  113.375575323    10.0720  -0.1642  -0.0125  -0.2379   0.0000   0.0000   0   0  22   3.00    1.1   0.0000  float
2023/11/13 17:07:52.000   22.844756389  113.375575294    10.0627  -0.1672  -0.0153  -0.2472   0.0000   0.0000   0   0  22   4.00    1.1   0.0000  float
2023/11/13 17:07:53.000   22.844756381  113.375575292    10.0587  -0.1674  -0.0162  -0.2512   0.0000   0.0000   0   0  22   5.00    1.1   0.0000  float
2023/11/13 17:07:54.000   22.844756397  113.375575299    10.0680  -0.1667  -0.0144  -0.2419   0.0000   0.0000   0   0  22   6.00    1.1   0.0000  float
2023/11/13 17:07:55.000   22.844756400  113.375575326    10.0760  -0.1640  -0.0142  -0.2339   0.0000   0.0000   0   0  22   7.00    1.1   0.0000  float
2023/11/13 17:07:56.000   22.844756396  113.375575330    10.0781  -0.1635  -0.0145  -0.2318   0.0000   0.0000   0   0  22   8.00    1.1   0.0000  float
2023/11/13 17:07:57.000   22.844756396  113.375575331    10.0798  -0.1634  -0.0145  -0.2301   0.0000   0.0000   0   0  22   9.00    1.1   0.0000  float
2023/11/13 17:07:58.000   22.844756385  113.375575332    10.0749  -0.1633  -0.0157  -0.2350   0.0000   0.0000   0   0  22  10.00    1.1   0.0000  float
2023/11/13 17:07:59.000   22.844756375  113.375575341    10.0709  -0.1624  -0.0169  -0.2390   0.0000   0.0000   0   0  22  11.00    1.1   0.0000  float
2023/11/13 17:08:00.000   22.844756387  113.375575341    10.0745  -0.1624  -0.0156  -0.2354   0.0000   0.0000   0   0  22  12.00    1.1   0.0000  float
2023/11/13 17:08:01.000   22.844756394  113.375575367    10.0773  -0.1597  -0.0147  -0.2326   0.0000   0.0000   0   0  22  13.00    1.1   0.0000  float
2023/11/13 17:08:02.000   22.844756379  113.375575272    10.0194  -0.1694  -0.0164  -0.2905   0.0000   0.0000   0   0  22   1.00    1.0   0.0000  float
2023/11/13 17:08:03.000   22.844756430  113.375575294    10.0253  -0.1672  -0.0108  -0.2846   0.0000   0.0000   0   0  22   1.00    1.0   0.0000  float
2023/11/13 17:08:04.000   22.844756470  113.375575305    10.0251  -0.1660  -0.0064  -0.2848   0.0000   0.0000   0   0  22   1.00    1.0   0.0000  float
2023/11/13 17:08:05.000   22.844756491  113.375575252    10.0076  -0.1715  -0.0041  -0.3023   0.0000   0.0000   0   0  22   1.00    1.0   0.0000  float
2023/11/13 17:08:06.000   22.844756521  113.375575209     9.9981  -0.1759  -0.0008  -0.3118   0.0000   0.0000   0   0  22   1.00    1.0   0.0000  float
2023/11/13 17:08:07.000   22.844756544  113.375575172     9.9875  -0.1798   0.0018  -0.3224   0.0000   0.0000   0   0  22   1.00    1.0   0.0000  float
2023/11/13 17:08:08.000   22.844756581  113.375575187     9.9831  -0.1782   0.0060  -0.3268   0.0000   0.0000   0   0  22   1.00    1.0   0.0000  float
2023/11/13 17:08:09.000   22.844756623  113.375575209     9.9831  -0.1759   0.0106  -0.3268   0.0000   0.0000   0   0  22   1.00    1.0   0.0000  float
2023/11/13 17:08:10.000   22.844756666  113.375575233     9.9868  -0.1735   0.0153  -0.3231   0.0000   0.0000   0   0  22   2.00    1.0   0.0000  float
2023/11/13 17:08:11.000   22.844756686  113.375575257     9.9870  -0.1710   0.0175  -0.3229   0.0000   0.0000   0   0  22   3.00    1.0   0.0000  float
2023/11/13 17:08:12.000   22.844756702  113.375575274     9.9913  -0.1693   0.0193  -0.3186   0.0000   0.0000   0   0  22   4.00    1.0   0.0000  float
2023/11/13 17:08:13.000   22.844756712  113.375575280     9.9933  -0.1686   0.0205  -0.3166   0.0000   0.0000   0   0  22   5.00    1.1   0.0000  float
2023/11/13 17:08:14.000   22.844756723  113.375575289     9.9973  -0.1678   0.0217  -0.3126   0.0000   0.0000   0   0  22   6.00    1.1   0.0000  float
2023/11/13 17:08:15.000   22.844756734  113.375575295    10.0042  -0.1671   0.0228  -0.3057   0.0000   0.0000   0   0  22   7.00    1.1   0.0000  float
2023/11/13 17:08:16.000   22.844756731  113.375575288    10.0072  -0.1679   0.0226  -0.3027   0.0000   0.0000   0   0  22   8.00    1.1   0.0000  float
2023/11/13 17:08:17.000   22.844756751  113.375575299    10.0198  -0.1667   0.0248  -0.2901   0.0000   0.0000   0   0  22   9.00    1.1   0.0000  float
2023/11/13 17:08:18.000   22.844756759  113.375575290    10.0305  -0.1676   0.0256  -0.2794   0.0000   0.0000   0   0  22  10.00    1.1   0.0000  float
2023/11/13 17:08:19.000   22.844756762  113.375575281    10.0359  -0.1686   0.0260  -0.2740   0.0000   0.0000   0   0  22  11.00    1.1   0.0000  float
2023/11/13 17:08:20.000   22.844756751  113.375575272    10.0367  -0.1695   0.0248  -0.2732   0.0000   0.0000   0   0  22  12.00    1.1   0.0000  float
2023/11/13 17:08:21.000   22.844756760  113.375575234    10.0391  -0.1734   0.0258  -0.2708   0.0000   0.0000   0   0  22  13.00    1.1   0.0000  float
2023/11/13 17:08:22.000   22.844757196  113.375576444    10.0984  -0.0492   0.0741  -0.2115   0.0000   0.0000   0   0  22   1.00    1.0   0.0000  float
2023/11/13 17:08:23.000   22.844757179  113.375576397    10.0966  -0.0540   0.0721  -0.2133   0.0000   0.0000   0   0  22   1.00    1.0   0.0000  float
2023/11/13 17:08:24.000   22.844757195  113.375576347    10.0996  -0.0592   0.0740  -0.2103   0.0000   0.0000   0   0  22   0.00    1.0   0.0000  float
2023/11/13 17:08:25.000   22.844757195  113.375576287    10.1006  -0.0653   0.0739  -0.2093   0.0000   0.0000   0   0  22   1.00    1.0   0.0000  float
2023/11/13 17:08:26.000   22.844757195  113.375576266    10.1070  -0.0674   0.0740  -0.2029   0.0000   0.0000   0   0  22   2.00    1.0   0.0000  float
2023/11/13 17:08:27.000   22.844757180  113.375576267    10.1059  -0.0674   0.0722  -0.2040   0.0000   0.0000   0   0  22   3.00    1.1   0.0000  float
2023/11/13 17:08:28.000   22.844757164  113.375576238    10.1004  -0.0703   0.0705  -0.2095   0.0000   0.0000   0   0  22   4.00    1.1   0.0000  float
2023/11/13 17:08:29.000   22.844757129  113.375576212    10.0984  -0.0729   0.0666  -0.2115   0.0000   0.0000   0   0  22   3.00    1.1   0.0000  float
2023/11/13 17:08:30.000   22.844757113  113.375576194    10.0919  -0.0749   0.0648  -0.2180   0.0000   0.0000   0   0  22   4.00    1.2   0.0000  float
2023/11/13 17:08:31.000   22.844757087  113.375576214    10.0973  -0.0728   0.0620  -0.2126   0.0000   0.0000   0   0  22   5.00    1.2   0.0000  float
2023/11/13 17:08:32.000   22.844757084  113.375576226    10.0980  -0.0716   0.0617  -0.2119   0.0000   0.0000   0   0  22   6.00    1.2   0.0000  float
2023/11/13 17:08:33.000   22.844757093  113.375576224    10.0990  -0.0718   0.0626  -0.2109   0.0000   0.0000   0   0  22   7.00    1.2   0.0000  float
2023/11/13 17:08:34.000   22.844757097  113.375576221    10.1055  -0.0720   0.0631  -0.2044   0.0000   0.0000   0   0  22   8.00    1.2   0.0000  float
2023/11/13 17:08:35.000   22.844757075  113.375576223    10.1033  -0.0719   0.0607  -0.2066   0.0000   0.0000   0   0  22   9.00    1.3   0.0000  float
2023/11/13 17:08:36.000   22.844757070  113.375576230    10.0994  -0.0712   0.0601  -0.2105   0.0000   0.0000   0   0  22  10.00    1.3   0.0000  float
2023/11/13 17:08:37.000   22.844757062  113.375576250    10.1001  -0.0691   0.0592  -0.2098   0.0000   0.0000   0   0  22  11.00    1.3   0.0000  float
2023/11/13 17:08:38.000   22.844757046  113.375576262    10.1026  -0.0679   0.0575  -0.2073   0.0000   0.0000   0   0  22  12.00    1.3   0.0000  float
2023/11/13 17:08:39.000   22.844757039  113.375576250    10.1029  -0.0691   0.0567  -0.2070   0.0000   0.0000   0   0  22  13.00    1.3   0.0000  float
2023/11/13 17:08:40.000   22.844757041  113.375576250    10.1013  -0.0691   0.0568  -0.2086   0.0000   0.0000   0   0  22  14.00    1.3   0.0000  float
2023/11/13 17:08:41.000   22.844757040  113.375576266    10.1074  -0.0674   0.0568  -0.2025   0.0000   0.0000   0   0  22  15.00    1.3   0.0000  float
2023/11/13 17:08:42.000   22.844756906  113.375576281    10.0927  -0.0659   0.0420  -0.2172   0.0000   0.0000   0   0  22   1.00    1.4   0.0000  float
2023/11/13 17:08:43.000   22.844756395  113.375576735    10.2407  -0.0194  -0.0147  -0.0692   0.0000   0.0000   0   0  22   1.00    1.0   0.0000  float
2023/11/13 17:08:44.000   22.844756428  113.375576718    10.2184  -0.0211  -0.0110  -0.0915   0.0000   0.0000   0   0  22   1.00    1.0   0.0000  float
2023/11/13 17:08:45.000   22.844756500  113.375576575    10.2064  -0.0357  -0.0031  -0.1035   0.0000   0.0000   0   0  22   1.00    1.0   0.0000  float
2023/11/13 17:08:46.000   22.844756534  113.375576523    10.1958  -0.0411   0.0007  -0.1141   0.0000   0.0000   0   0  22   1.00    1.0   0.0000  float
2023/11/13 17:08:47.000   22.844756558  113.375576468    10.1735  -0.0467   0.0033  -0.1364   0.0000   0.0000   0   0  22   1.00    1.1   0.0000  float
2023/11/13 17:08:48.000   22.844756566  113.375576429    10.1604  -0.0507   0.0043  -0.1495   0.0000   0.0000   0   0  22   1.00    1.1   0.0000  float
2023/11/13 17:08:49.000   22.844756563  113.375576344    10.1415  -0.0594   0.0040  -0.1684   0.0000   0.0000   0   0  22   1.00    1.1   0.0000  float
2023/11/13 17:08:50.000   22.844756589  113.375576311    10.1296  -0.0628   0.0068  -0.1803   0.0000   0.0000   0   0  22   2.00    1.1   0.0000  float
2023/11/13 17:08:51.000   22.844756585  113.375576253    10.1133  -0.0688   0.0064  -0.1966   0.0000   0.0000   0   0  22   3.00    1.1   0.0000  float
2023/11/13 17:08:52.000   22.844756584  113.375576241    10.1013  -0.0700   0.0063  -0.2086   0.0000   0.0000   0   0  22   4.00    1.1   0.0000  float
2023/11/13 17:08:53.000   22.844756592  113.375576231    10.0883  -0.0710   0.0072  -0.2216   0.0000   0.0000   0   0  22   5.00    1.1   0.0000  float
2023/11/13 17:08:54.000   22.844756589  113.375576231    10.0828  -0.0711   0.0069  -0.2271   0.0000   0.0000   0   0  22   6.00    1.2   0.0000  float
2023/11/13 17:08:55.000   22.844756598  113.375576248    10.0814  -0.0693   0.0079  -0.2285   0.0000   0.0000   0   0  22   7.00    1.2   0.0000  float
2023/11/13 17:08:56.000   22.844756592  113.375576275    10.0778  -0.0665   0.0071  -0.2321   0.0000   0.0000   0   0  22   8.00    1.2   0.0000  float
2023/11/13 17:08:57.000   22.844756589  113.375576289    10.0728  -0.0651   0.0068  -0.2371   0.0000   0.0000   0   0  22   9.00    1.2   0.0000  float
2023/11/13 17:08:58.000   22.844756587  113.375576269    10.0729  -0.0672   0.0066  -0.2370   0.0000   0.0000   0   0  22  10.00    1.2   0.0000  float
2023/11/13 17:08:59.000   22.844756582  113.375576313    10.0701  -0.0626   0.0061  -0.2398   0.0000   0.0000   0   0  22  11.00    1.2   0.0000  float
2023/11/13 17:09:00.000   22.844756579  113.375576369    10.0728  -0.0569   0.0057  -0.2371   0.0000   0.0000   0   0  22  12.00    1.2   0.0000  float
2023/11/13 17:09:01.000   22.844756585  113.375576414    10.0832  -0.0522   0.0063  -0.2267   0.0000   0.0000   0   0  22  13.00    1.2   0.0000  float
2023/11/13 17:09:02.000   22.844756520  113.375576324    10.0762  -0.0615  -0.0008  -0.2337   0.0000   0.0000   0   0  22   1.00    1.2   0.0000  float
2023/11/13 17:09:03.000   22.844756538  113.375576258    10.0785  -0.0683   0.0012  -0.2314   0.0000   0.0000   0   0  22   1.00    1.2   0.0000  float
2023/11/13 17:09:04.000   22.844756532  113.375576246    10.0771  -0.0695   0.0005  -0.2328   0.0000   0.0000   0   0  22   1.00    1.2   0.0000  float
2023/11/13 17:09:05.000   22.844756560  113.375576210    10.0795  -0.0732   0.0036  -0.2304   0.0000   0.0000   0   0  22   1.00    1.1   0.0000  float
2023/11/13 17:09:06.000   22.844756571  113.375576199    10.0864  -0.0744   0.0048  -0.2235   0.0000   0.0000   0   0  22   0.00    1.1   0.0000  float
2023/11/13 17:09:07.000   22.844756574  113.375576166    10.0908  -0.0777   0.0052  -0.2191   0.0000   0.0000   0   0  22   1.00    1.0   0.0000  float
2023/11/13 17:09:08.000   22.844756535  113.375576063    10.0807  -0.0882   0.0008  -0.2292   0.0000   0.0000   0   0  22   0.00    1.0   0.0000  float
2023/11/13 17:09:09.000   22.844756534  113.375576056    10.0861  -0.0891   0.0007  -0.2238   0.0000   0.0000   0   0  22   1.00    1.0   0.0000  float
2023/11/13 17:09:10.000   22.844756538  113.375576042    10.0962  -0.0904   0.0012  -0.2137   0.0000   0.0000   0   0  22   2.00    1.1   0.0000  float
2023/11/13 17:09:11.000   22.844756541  113.375576023    10.1001  -0.0924   0.0015  -0.2098   0.0000   0.0000   0   0  22   3.00    1.1   0.0000  float
2023/11/13 17:09:12.000   22.844756544  113.375576010    10.0993  -0.0937   0.0018  -0.2106   0.0000   0.0000   0   0  22   4.00    1.1   0.0000  float
2023/11/13 17:09:13.000   22.844756533  113.375576004    10.1025  -0.0944   0.0006  -0.2074   0.0000   0.0000   0   0  22   5.00    1.1   0.0000  float
2023/11/13 17:09:14.000   22.844756535  113.375575990    10.1032  -0.0958   0.0008  -0.2067   0.0000   0.0000   0   0  22   6.00    1.1   0.0000  float
2023/11/13 17:09:15.000   22.844756523  113.375575974    10.1048  -0.0974  -0.0005  -0.2051   0.0000   0.0000   0   0  22   7.00    1.1   0.0000  float
2023/11/13 17:09:16.000   22.844756527  113.375575989    10.1074  -0.0959  -0.0000  -0.2025   0.0000   0.0000   0   0  22   8.00    1.1   0.0000  float
2023/11/13 17:09:17.000   22.844756513  113.375575996    10.1084  -0.0951  -0.0016  -0.2015   0.0000   0.0000   0   0  22   9.00    1.1   0.0000  float
2023/11/13 17:09:18.000   22.844756502  113.375576012    10.1086  -0.0936  -0.0029  -0.2013   0.0000   0.0000   0   0  22  10.00    1.1   0.0000  float
2023/11/13 17:09:19.000   22.844756495  113.375575999    10.1034  -0.0949  -0.0036  -0.2065   0.0000   0.0000   0   0  22  11.00    1.1   0.0000  float
2023/11/13 17:09:20.000   22.844756490  113.375575970    10.1027  -0.0978  -0.0041  -0.2072   0.0000   0.0000   0   0  22  12.00    1.1   0.0000  float
2023/11/13 17:09:21.000   22.844756494  113.375575903    10.1014  -0.1047  -0.0037  -0.2085   0.0000   0.0000   0   0  22  13.00    1.1   0.0000  float
2023/11/13 17:09:22.000   22.844756475  113.375575803    10.0536  -0.1150  -0.0058  -0.2563   0.0000   0.0000   0   0  22   1.00    1.0   0.0000  float
2023/11/13 17:09:23.000   22.844756436  113.375575770    10.0498  -0.1183  -0.0101  -0.2601   0.0000   0.0000   0   0  22   1.00    1.0   0.0000  float
2023/11/13 17:09:24.000   22.844756393  113.375575772    10.0512  -0.1182  -0.0149  -0.2587   0.0000   0.0000   0   0  22   1.00    1.0   0.0000  float
2023/11/13 17:09:25.000   22.844756370  113.375575787    10.0546  -0.1166  -0.0174  -0.2553   0.0000   0.0000   0   0  22   1.00    1.0   0.0000  float
2023/11/13 17:09:26.000   22.844756337  113.375575796    10.0450  -0.1157  -0.0210  -0.2649   0.0000   0.0000   0   0  22   1.00    1.0   0.0000  float
2023/11/13 17:09:27.000   22.844756282  113.375575804    10.0413  -0.1149  -0.0271  -0.2686   0.0000   0.0000   0   0  22   1.00    1.0   0.0000  float
2023/11/13 17:09:28.000   22.844756248  113.375575777    10.0346  -0.1176  -0.0309  -0.2753   0.0000   0.0000   0   0  22   1.00    1.0   0.0000  float
2023/11/13 17:09:29.000   22.844756205  113.375575777    10.0333  -0.1176  -0.0358  -0.2766   0.0000   0.0000   0   0  22   1.00    1.0   0.0000  float
2023/11/13 17:09:30.000   22.844756127  113.375575720    10.0230  -0.1234  -0.0444  -0.2869   0.0000   0.0000   0   0  22   1.00    1.0   0.0000  float
2023/11/13 17:09:31.000   22.844756129  113.375575739    10.0323  -0.1215  -0.0442  -0.2776   0.0000   0.0000   0   0  22   2.00    1.0   0.0000  float
2023/11/13 17:09:32.000   22.844756121  113.375575759    10.0427  -0.1195  -0.0450  -0.2672   0.0000   0.0000   0   0  22   3.00    1.0   0.0000  float
2023/11/13 17:09:33.000   22.844756096  113.375575787    10.0422  -0.1167  -0.0478  -0.2677   0.0000   0.0000   0   0  22   4.00    1.0   0.0000  float
2023/11/13 17:09:34.000   22.844756098  113.375575756    10.0473  -0.1198  -0.0475  -0.2626   0.0000   0.0000   0   0  22   5.00    1.0   0.0000  float
2023/11/13 17:09:35.000   22.844756075  113.375575723    10.0496  -0.1232  -0.0501  -0.2603   0.0000   0.0000   0   0  22   6.00    1.0   0.0000  float
2023/11/13 17:09:36.000   22.844756065  113.375575691    10.0451  -0.1265  -0.0513  -0.2648   0.0000   0.0000   0   0  22   7.00    1.0   0.0000  float
2023/11/13 17:09:37.000   22.844756043  113.375575649    10.0414  -0.1307  -0.0537  -0.2685   0.0000   0.0000   0   0  22   8.00    1.0   0.0000  float
2023/11/13 17:09:38.000   22.844756030  113.375575625    10.0428  -0.1332  -0.0551  -0.2671   0.0000   0.0000   0   0  22   9.00    1.0   0.0000  float
2023/11/13 17:09:39.000   22.844756023  113.375575631    10.0471  -0.1326  -0.0558  -0.2628   0.0000   0.0000   0   0  22  10.00    1.0   0.0000  float
2023/11/13 17:09:40.000   22.844756028  113.375575643    10.0593  -0.1314  -0.0553  -0.2506   0.0000   0.0000   0   0  22  11.00    1.0   0.0000  float
2023/11/13 17:09:41.000   22.844756020  113.375575640    10.0611  -0.1317  -0.0562  -0.2488   0.0000   0.0000   0   0  22  12.00    1.0   0.0000  float
2023/11/13 17:09:42.000   22.844755849  113.375575103     9.9528  -0.1869  -0.0751  -0.3571   0.0000   0.0000   0   0  22   1.00    1.0   0.0000  float
2023/11/13 17:09:43.000   22.844754761  113.375574161     9.8089  -0.2835  -0.1956  -0.5010   0.0000   0.0000   0   0  23   1.00    1.0   0.0000  float
2023/11/13 17:09:44.000   22.844754707  113.375574057     9.7927  -0.2942  -0.2016  -0.5172   0.0000   0.0000   0   0  23   1.00    1.0   0.0000  float
2023/11/13 17:09:45.000   22.844754637  113.375573967     9.7787  -0.3034  -0.2094  -0.5312   0.0000   0.0000   0   0  23   0.00    1.0   0.0000  float
2023/11/13 17:09:46.000   22.844754601  113.375573965     9.7781  -0.3036  -0.2133  -0.5318   0.0000   0.0000   0   0  23   1.00    1.0   0.0000  float
2023/11/13 17:09:47.000   22.844754533  113.375573878     9.7646  -0.3126  -0.2209  -0.5453   0.0000   0.0000   0   0  23   0.00    1.0   0.0000  float
2023/11/13 17:09:48.000   22.844754499  113.375573819     9.7600  -0.3186  -0.2246  -0.5499   0.0000   0.0000   0   0  23   1.00    1.0   0.0000  float
2023/11/13 17:09:49.000   22.844754466  113.375573762     9.7583  -0.3244  -0.2283  -0.5516   0.0000   0.0000   0   0  23   2.00    1.0   0.0000  float
2023/11/13 17:09:50.000   22.844754438  113.375573745     9.7572  -0.3262  -0.2314  -0.5527   0.0000   0.0000   0   0  23   3.00    1.0   0.0000  float
2023/11/13 17:09:51.000   22.844754420  113.375573687     9.7480  -0.3321  -0.2334  -0.5619   0.0000   0.0000   0   0  23   4.00    1.0   0.0000  float
2023/11/13 17:09:52.000   22.844754424  113.375573688     9.7534  -0.3321  -0.2330  -0.5565   0.0000   0.0000   0   0  23   5.00    1.0   0.0000  float
2023/11/13 17:09:53.000   22.844754404  113.375573662     9.7579  -0.3347  -0.2351  -0.5520   0.0000   0.0000   0   0  23   6.00    1.0   0.0000  float
2023/11/13 17:09:54.000   22.844754388  113.375573661     9.7634  -0.3348  -0.2370  -0.5465   0.0000   0.0000   0   0  23   7.00    1.0   0.0000  float
2023/11/13 17:09:55.000   22.844754390  113.375573632     9.7667  -0.3378  -0.2367  -0.5432   0.0000   0.0000   0   0  23   8.00    1.0   0.0000  float
2023/11/13 17:09:56.000   22.844754383  113.375573602     9.7716  -0.3409  -0.2375  -0.5383   0.0000   0.0000   0   0  23   9.00    1.0   0.0000  float
2023/11/13 17:09:57.000   22.844754366  113.375573534     9.7730  -0.3479  -0.2394  -0.5369   0.0000   0.0000   0   0  23  10.00    1.0   0.0000  float
2023/11/13 17:10:08.000   22.844753901  113.375573410     9.7256  -0.3606  -0.2908  -0.5843   0.0000   0.0000   0   0  14   1.00    1.3   0.0000  float
2023/11/13 17:10:09.000   22.844753909  113.375573261     9.7139  -0.3759  -0.2900  -0.5960   0.0000   0.0000   0   0  23   1.00    1.0   0.0000  float
2023/11/13 17:10:10.000   22.844753858  113.375573250     9.7250  -0.3770  -0.2956  -0.5849   0.0000   0.0000   0   0  23   1.00    1.0   0.0000  float
2023/11/13 17:10:11.000   22.844753808  113.375573223     9.7329  -0.3797  -0.3011  -0.5770   0.0000   0.0000   0   0  23   2.00    1.0   0.0000  float
2023/11/13 17:10:12.000   22.844753775  113.375573216     9.7376  -0.3805  -0.3048  -0.5723   0.0000   0.0000   0   0  23   3.00    1.0   0.0000  float
2023/11/13 17:10:13.000   22.844753739  113.375573207     9.7383  -0.3815  -0.3088  -0.5716   0.0000   0.0000   0   0  23   4.00    1.1   0.0000  float
2023/11/13 17:10:14.000   22.844753726  113.375573180     9.7406  -0.3842  -0.3103  -0.5693   0.0000   0.0000   0   0  23   5.00    1.1   0.0000  float
2023/11/13 17:10:15.000   22.844753738  113.375573191     9.7514  -0.3831  -0.3090  -0.5585   0.0000   0.0000   0   0  23   6.00    1.1   0.0000  float
2023/11/13 17:10:16.000   22.844753747  113.375573240     9.7575  -0.3780  -0.3080  -0.5524   0.0000   0.0000   0   0  23   7.00    1.1   0.0000  float
2023/11/13 17:10:17.000   22.844753752  113.375573274     9.7688  -0.3745  -0.3074  -0.5411   0.0000   0.0000   0   0  23   8.00    1.1   0.0000  float
2023/11/13 17:10:18.000   22.844753753  113.375573300     9.7805  -0.3719  -0.3072  -0.5294   0.0000   0.0000   0   0  23   9.00    1.1   0.0000  float
2023/11/13 17:10:19.000   22.844753750  113.375573313     9.7883  -0.3705  -0.3075  -0.5216   0.0000   0.0000   0   0  23  10.00    1.1   0.0000  float
2023/11/13 17:10:20.000   22.844753722  113.375573294     9.7895  -0.3725  -0.3107  -0.5204   0.0000   0.0000   0   0  23  11.00    1.1   0.0000  float
2023/11/13 17:10:21.000   22.844753713  113.375573249     9.7833  -0.3771  -0.3117  -0.5266   0.0000   0.0000   0   0  23  12.00    1.1   0.0000  float
2023/11/13 17:10:22.000   22.844753203  113.375573079     9.6949  -0.3946  -0.3682  -0.6150   0.0000   0.0000   0   0  22   1.00    1.0   0.0000  float
2023/11/13 17:10:23.000   22.844753150  113.375573042     9.7055  -0.3983  -0.3740  -0.6044   0.0000   0.0000   0   0  22   1.00    1.0   0.0000  float
2023/11/13 17:10:24.000   22.844753095  113.375572989     9.7176  -0.4038  -0.3801  -0.5923   0.0000   0.0000   0   0  22   1.00    1.0   0.0000  float
2023/11/13 17:10:25.000   22.844753013  113.375572921     9.7286  -0.4108  -0.3892  -0.5813   0.0000   0.0000   0   0  22   1.00    1.0   0.0000  float
2023/11/13 17:10:26.000   22.844752941  113.375572858     9.7402  -0.4173  -0.3971  -0.5697   0.0000   0.0000   0   0  22   1.00    1.0   0.0000  float
2023/11/13 17:10:27.000   22.844752872  113.375572789     9.7442  -0.4243  -0.4048  -0.5657   0.0000   0.0000   0   0  22   1.00    1.0   0.0000  float
2023/11/13 17:10:28.000   22.844752776  113.375572734     9.7478  -0.4300  -0.4155  -0.5621   0.0000   0.0000   0   0  22   1.00    1.0   0.0000  float
2023/11/13 17:10:29.000   22.844752717  113.375572701     9.7563  -0.4334  -0.4220  -0.5536   0.0000   0.0000   0   0  22   1.00    1.0   0.0000  float
2023/11/13 17:10:30.000   22.844752664  113.375572691     9.7554  -0.4344  -0.4279  -0.5545   0.0000   0.0000   0   0  22   1.00    1.0   0.0000  float
2023/11/13 17:10:31.000   22.844752622  113.375572695     9.7715  -0.4340  -0.4325  -0.5384   0.0000   0.0000   0   0  22   2.00    1.0   0.0000  float
2023/11/13 17:10:32.000   22.844752578  113.375572704     9.7841  -0.4330  -0.4374  -0.5258   0.0000   0.0000   0   0  22   3.00    1.0   0.0000  float
2023/11/13 17:10:33.000   22.844752546  113.375572746     9.7952  -0.4287  -0.4409  -0.5147   0.0000   0.0000   0   0  22   4.00    1.0   0.0000  float
2023/11/13 17:10:34.000   22.844752523  113.375572774     9.8056  -0.4259  -0.4435  -0.5043   0.0000   0.0000   0   0  22   5.00    1.0   0.0000  float
2023/11/13 17:10:35.000   22.844752496  113.375572780     9.8120  -0.4253  -0.4464  -0.4979   0.0000   0.0000   0   0  22   6.00    1.0   0.0000  float
2023/11/13 17:10:36.000   22.844752483  113.375572789     9.8145  -0.4243  -0.4479  -0.4954   0.0000   0.0000   0   0  22   7.00    1.0   0.0000  float
2023/11/13 17:10:37.000   22.844752479  113.375572825     9.8175  -0.4206  -0.4484  -0.4924   0.0000   0.0000   0   0  22   8.00    1.0   0.0000  float
2023/11/13 17:10:38.000   22.844752481  113.375572875     9.8232  -0.4155  -0.4481  -0.4867   0.0000   0.0000   0   0  22   9.00    1.0   0.0000  float
2023/11/13 17:10:39.000   22.844752498  113.375572928     9.8325  -0.4100  -0.4462  -0.4774   0.0000   0.0000   0   0  22  10.00    1.0   0.0000  float
2023/11/13 17:10:40.000   22.844752503  113.375572978     9.8368  -0.4049  -0.4457  -0.4731   0.0000   0.0000   0   0  22  11.00    1.0   0.0000  float
2023/11/13 17:10:41.000   22.844752248  113.375572548     9.8094  -0.4491  -0.4740  -0.5005   0.0000   0.0000   0   0  22   1.00    1.0   0.0000  float
2023/11/13 17:10:42.000   22.844752184  113.375572504     9.8150  -0.4535  -0.4810  -0.4949   0.0000   0.0000   0   0  22   1.00    1.0   0.0000  float
2023/11/13 17:10:43.000   22.844751903  113.375572608     9.8096  -0.4429  -0.5121  -0.5003   0.0000   0.0000   0   0  22   1.00    1.0   0.0000  float
2023/11/13 17:10:44.000   22.844752004  113.375572607     9.7989  -0.4431  -0.5009  -0.5110   0.0000   0.0000   0   0  22   1.00    1.0   0.0000  float
2023/11/13 17:10:45.000   22.844752021  113.375572578     9.7909  -0.4460  -0.4990  -0.5190   0.0000   0.0000   0   0  22   1.00    1.0   0.0000  float
2023/11/13 17:10:46.000   22.844752063  113.375572599     9.7815  -0.4438  -0.4944  -0.5284   0.0000   0.0000   0   0  22   1.00    1.0   0.0000  float
2023/11/13 17:10:47.000   22.844752119  113.375572639     9.7792  -0.4398  -0.4882  -0.5307   0.0000   0.0000   0   0  22   1.00    1.0   0.0000  float
2023/11/13 17:10:48.000   22.844752119  113.375572668     9.7792  -0.4368  -0.4882  -0.5307   0.0000   0.0000   0   0  22   1.00    1.1   0.0000  float
2023/11/13 17:10:49.000   22.844752142  113.375572641     9.7658  -0.4396  -0.4856  -0.5441   0.0000   0.0000   0   0  22   0.00    1.1   0.0000  float
2023/11/13 17:10:50.000   22.844752161  113.375572640     9.7671  -0.4396  -0.4835  -0.5428   0.0000   0.0000   0   0  22   1.00    1.1   0.0000  float
2023/11/13 17:10:51.000   22.844752147  113.375572646     9.7683  -0.4390  -0.4851  -0.5416   0.0000   0.0000   0   0  22   2.00    1.1   0.0000  float
2023/11/13 17:10:52.000   22.844752154  113.375572665     9.7676  -0.4371  -0.4843  -0.5423   0.0000   0.0000   0   0  22   3.00    1.1   0.0000  float
2023/11/13 17:10:53.000   22.844752164  113.375572679     9.7691  -0.4356  -0.4832  -0.5408   0.0000   0.0000   0   0  22   4.00    1.1   0.0000  float
2023/11/13 17:10:54.000   22.844752181  113.375572740     9.7861  -0.4294  -0.4813  -0.5238   0.0000   0.0000   0   0  22   5.00    1.1   0.0000  float
2023/11/13 17:10:55.000   22.844752224  113.375572813     9.7870  -0.4218  -0.4766  -0.5229   0.0000   0.0000   0   0  22   6.00    1.0   0.0000  float
2023/11/13 17:10:56.000   22.844752239  113.375572839     9.7989  -0.4192  -0.4749  -0.5110   0.0000   0.0000   0   0  22   7.00    1.0   0.0000  float
2023/11/13 17:10:57.000   22.844752247  113.375572870     9.8048  -0.4160  -0.4740  -0.5051   0.0000   0.0000   0   0  22   8.00    1.0   0.0000  float
2023/11/13 17:10:58.000   22.844752247  113.375572871     9.8088  -0.4160  -0.4740  -0.5011   0.0000   0.0000   0   0  22   9.00    1.0   0.0000  float
2023/11/13 17:10:59.000   22.844752228  113.375572869     9.8130  -0.4161  -0.4761  -0.4969   0.0000   0.0000   0   0  22  10.00    1.0   0.0000  float
2023/11/13 17:11:00.000   22.844752219  113.375572871     9.8104  -0.4159  -0.4771  -0.4995   0.0000   0.0000   0   0  22  11.00    1.0   0.0000  float
2023/11/13 17:11:01.000   22.844752186  113.375572635     9.7515  -0.4402  -0.4808  -0.5584   0.0000   0.0000   0   0  22   0.00    1.0   0.0000  float
2023/11/13 17:11:02.000   22.844752209  113.375572644     9.7459  -0.4392  -0.4782  -0.5640   0.0000   0.0000   0   0  22   1.00    1.0   0.0000  float
2023/11/13 17:11:03.000   22.844752244  113.375572649     9.7442  -0.4386  -0.4743  -0.5657   0.0000   0.0000   0   0  22   1.00    1.0   0.0000  float
2023/11/13 17:11:04.000   22.844752265  113.375572622     9.7337  -0.4415  -0.4720  -0.5762   0.0000   0.0000   0   0  22   1.00    1.0   0.0000  float
2023/11/13 17:11:05.000   22.844752337  113.375572664     9.7233  -0.4372  -0.4641  -0.5866   0.0000   0.0000   0   0  22   1.00    1.0   0.0000  float
2023/11/13 17:11:06.000   22.844752342  113.375572638     9.7176  -0.4398  -0.4635  -0.5923   0.0000   0.0000   0   0  22   0.00    1.0   0.0000  float
2023/11/13 17:11:07.000   22.844752396  113.375572644     9.7116  -0.4392  -0.4575  -0.5983   0.0000   0.0000   0   0  22   1.00    1.0   0.0000  float
2023/11/13 17:11:08.000   22.844752363  113.375572549     9.7061  -0.4489  -0.4612  -0.6038   0.0000   0.0000   0   0  22   0.00    1.0   0.0000  float
2023/11/13 17:11:09.000   22.844752345  113.375572480     9.7011  -0.4560  -0.4632  -0.6088   0.0000   0.0000   0   0  22   0.00    1.0   0.0000  float
2023/11/13 17:11:10.000   22.844752377  113.375572507     9.7065  -0.4532  -0.4596  -0.6034   0.0000   0.0000   0   0  22   1.00    1.0   0.0000  float
2023/11/13 17:11:11.000   22.844752393  113.375572489     9.7151  -0.4551  -0.4579  -0.5948   0.0000   0.0000   0   0  22   1.00    1.0   0.0000  float
2023/11/13 17:11:12.000   22.844752424  113.375572518     9.7163  -0.4522  -0.4544  -0.5936   0.0000   0.0000   0   0  22   2.00    1.0   0.0000  float
2023/11/13 17:11:13.000   22.844752461  113.375572551     9.7187  -0.4488  -0.4503  -0.5912   0.0000   0.0000   0   0  22   3.00    1.0   0.0000  float
2023/11/13 17:11:14.000   22.844752480  113.375572528     9.7129  -0.4511  -0.4482  -0.5970   0.0000   0.0000   0   0  22   4.00    1.0   0.0000  float
2023/11/13 17:11:15.000   22.844752479  113.375572551     9.7166  -0.4488  -0.4484  -0.5933   0.0000   0.0000   0   0  22   5.00    1.0   0.0000  float
2023/11/13 17:11:16.000   22.844752467  113.375572551     9.7243  -0.4487  -0.4497  -0.5856   0.0000   0.0000   0   0  22   6.00    1.0   0.0000  float
2023/11/13 17:11:17.000   22.844752453  113.375572539     9.7294  -0.4500  -0.4512  -0.5805   0.0000   0.0000   0   0  22   7.00    1.0   0.0000  float
2023/11/13 17:11:18.000   22.844752425  113.375572512     9.7306  -0.4528  -0.4543  -0.5793   0.0000   0.0000   0   0  22   8.00    1.0   0.0000  float
2023/11/13 17:11:19.000   22.844752397  113.375572503     9.7301  -0.4537  -0.4574  -0.5798   0.0000   0.0000   0   0  22   9.00    1.0   0.0000  float
2023/11/13 17:11:20.000   22.844752401  113.375572491     9.7319  -0.4550  -0.4569  -0.5780   0.0000   0.0000   0   0  22  10.00    1.1   0.0000  float
2023/11/13 17:11:21.000   22.844752455  113.375572551     9.6890  -0.4488  -0.4510  -0.6209   0.0000   0.0000   0   0  22   0.00    1.1   0.0000  float
2023/11/13 17:11:22.000   22.844752506  113.375572516     9.6769  -0.4524  -0.4453  -0.6329   0.0000   0.0000   0   0  22   0.00    1.1   0.0000  float
2023/11/13 17:11:23.000   22.844752556  113.375572485     9.6684  -0.4556  -0.4398  -0.6415   0.0000   0.0000   0   0  22   1.00    1.1   0.0000  float
2023/11/13 17:11:24.000   22.844752595  113.375572444     9.6628  -0.4597  -0.4355  -0.6471   0.0000   0.0000   0   0  22   1.00    1.1   0.0000  float
2023/11/13 17:11:25.000   22.844752695  113.375572449     9.6560  -0.4592  -0.4244  -0.6539   0.0000   0.0000   0   0  22   1.00    1.1   0.0000  float
2023/11/13 17:11:26.000   22.844752749  113.375572418     9.6489  -0.4624  -0.4185  -0.6610   0.0000   0.0000   0   0  22   1.00    1.1   0.0000  float
2023/11/13 17:11:27.000   22.844752754  113.375572264     9.6268  -0.4782  -0.4179  -0.6831   0.0000   0.0000   0   0  22   1.00    1.1   0.0000  float
2023/11/13 17:11:28.000   22.844752800  113.375572167     9.6139  -0.4882  -0.4128  -0.6960   0.0000   0.0000   0   0  22   1.00    1.0   0.0000  float
2023/11/13 17:11:29.000   22.844752843  113.375572046     9.5911  -0.5006  -0.4081  -0.7188   0.0000   0.0000   0   0  22   0.00    1.0   0.0000  float
2023/11/13 17:11:30.000   22.844752951  113.375572044     9.5721  -0.5008  -0.3961  -0.7378   0.0000   0.0000   0   0  22   0.00    1.0   0.0000  float
2023/11/13 17:11:31.000   22.844753004  113.375572037     9.5685  -0.5015  -0.3902  -0.7414   0.0000   0.0000   0   0  22   1.00    1.0   0.0000  float
2023/11/13 17:11:32.000   22.844753064  113.375572065     9.5604  -0.4986  -0.3836  -0.7495   0.0000   0.0000   0   0  22   2.00    1.0   0.0000  float
2023/11/13 17:11:33.000   22.844753133  113.375572076     9.5525  -0.4975  -0.3759  -0.7574   0.0000   0.0000   0   0  22   3.00    1.0   0.0000  float
2023/11/13 17:11:34.000   22.844753158  113.375572073     9.5467  -0.4978  -0.3732  -0.7632   0.0000   0.0000   0   0  22   4.00    1.0   0.0000  float
2023/11/13 17:11:35.000   22.844753180  113.375572066     9.5462  -0.4985  -0.3708  -0.7637   0.0000   0.0000   0   0  22   5.00    1.0   0.0000  float
2023/11/13 17:11:36.000   22.844753190  113.375572051     9.5435  -0.5001  -0.3696  -0.7664   0.0000   0.0000   0   0  22   6.00    1.1   0.0000  float
2023/11/13 17:11:37.000   22.844753176  113.375572032     9.5466  -0.5020  -0.3712  -0.7633   0.0000   0.0000   0   0  22   7.00    1.1   0.0000  float
2023/11/13 17:11:38.000   22.844753175  113.375572017     9.5438  -0.5035  -0.3712  -0.7661   0.0000   0.0000   0   0  22   8.00    1.1   0.0000  float
2023/11/13 17:11:39.000   22.844753184  113.375572039     9.5510  -0.5013  -0.3703  -0.7589   0.0000   0.0000   0   0  22   9.00    1.1   0.0000  float
2023/11/13 17:11:40.000   22.844753201  113.375572062     9.5492  -0.4990  -0.3683  -0.7607   0.0000   0.0000   0   0  22  10.00    1.1   0.0000  float
2023/11/13 17:11:41.000   22.844753219  113.375572094     9.5598  -0.4956  -0.3664  -0.7501   0.0000   0.0000   0   0  22  11.00    1.1   0.0000  float
2023/11/13 17:11:42.000   22.844753227  113.375572112     9.5672  -0.4938  -0.3655  -0.7427   0.0000   0.0000   0   0  22  12.00    1.1   0.0000  float
2023/11/13 17:11:43.000   22.844748015  113.375582708    10.3492   0.5938  -0.9426   0.0393   0.0000   0.0000   0   0  25   1.00    1.0   0.0000  float
2023/11/13 17:11:44.000   22.844748019  113.375583082    10.4394   0.6321  -0.9423   0.1295   0.0000   0.0000   0   0  25   0.00    1.0   0.0000  float
